{"type":"FeatureCollection","features":[{"type":"Feature","properties":{"name":"Austin, TX"},"geometry":{"type":"Point","coordinates":[-97.7431,30.2672]}},{"type":"Feature","properties":{"name":"El Paso, TX"},"geometry":{"type":"Point","coordinates":[-106.485,31.7619]}},{"type":"Feature","properties":{"name":"San Antonio, TX"},"geometry":{"type":"Point","coordinates":[-98.4936,29.4241]}},{"type":"Feature","properties":{"name":"Dallas, TX"},"geometry":{"type":"Point","coordinates":[-96.797,32.7767]}},{"type":"Feature","properties":{"name":"Houston, TX"},"geometry":{"type":"Point","coordinates":[-95.3698,29.7604]}}]}